{"directed": true, "multigraph": false, "graph": {}, "nodes": [{"lat": 44.406506, "lon": 8.946647, "name": "BRIGNOLE/METRO", "original_ids": [3030], "id": 0}, {"lat": 44.4077, "lon": 8.934238, "name": "DE FERRARI/METRO", "original_ids": [3028], "id": 1}, {"lat": 44.404243, "lon": 8.931859, "name": "S. AGOSTINO/METRO", "original_ids": [3029], "id": 2}, {"lat": 44.408951, "lon": 8.928676, "name": "SAN GIORGIO/METRO", "original_ids": [3027], "id": 3}, {"lat": 44.412964, "lon": 8.926686, "name": "DARSENA/METRO", "original_ids": [3026], "id": 4}, {"lat": 44.416496, "lon": 8.919032, "name": "PRINCIPE/METRO", "original_ids": [3023], "id": 5}, {"lat": 44.413807, "lon": 8.911743, "name": "DINEGRO/METRO", "original_ids": [3024], "id": 6}, {"lat": 44.428612, "lon": 8.894957, "name": "BRIN/METRO", "original_ids": [3025], "id": 7}], "links": [{"shape_id": {}, "direction_id": {}, "headsign": {"BRIN": 156}, "duration_avg": 300.0, "n_vehicles": 156, "d": 995, "route_I_counts": {"167": 156}, "source": 0, "target": 1}, {"shape_id": {}, "direction_id": {}, "headsign": {"BRIN": 156}, "duration_avg": 46.0, "n_vehicles": 156, "d": 428, "route_I_counts": {"167": 156}, "source": 1, "target": 2}, {"shape_id": {}, "direction_id": {}, "headsign": {"BRIGNOLE": 153}, "duration_avg": 360.0, "n_vehicles": 153, "d": 995, "route_I_counts": {"167": 153}, "source": 1, "target": 0}, {"shape_id": {}, "direction_id": {}, "headsign": {"BRIN": 156}, "duration_avg": 74.0, "n_vehicles": 156, "d": 582, "route_I_counts": {"167": 156}, "source": 2, "target": 3}, {"shape_id": {}, "direction_id": {}, "headsign": {"BRIGNOLE": 154}, "duration_avg": 69.0, "n_vehicles": 154, "d": 428, "route_I_counts": {"167": 154}, "source": 2, "target": 1}, {"shape_id": {}, "direction_id": {}, "headsign": {"BRIN": 156}, "duration_avg": 82.0, "n_vehicles": 156, "d": 473, "route_I_counts": {"167": 156}, "source": 3, "target": 4}, {"shape_id": {}, "direction_id": {}, "headsign": {"BRIGNOLE": 154}, "duration_avg": 111.0, "n_vehicles": 154, "d": 582, "route_I_counts": {"167": 154}, "source": 3, "target": 2}, {"shape_id": {}, "direction_id": {}, "headsign": {"BRIN": 155}, "duration_avg": 98.0, "n_vehicles": 155, "d": 724, "route_I_counts": {"167": 155}, "source": 4, "target": 5}, {"shape_id": {}, "direction_id": {}, "headsign": {"BRIGNOLE": 154}, "duration_avg": 82.0, "n_vehicles": 154, "d": 473, "route_I_counts": {"167": 154}, "source": 4, "target": 3}, {"shape_id": {}, "direction_id": {}, "headsign": {"BRIN": 155}, "duration_avg": 60.38709677419355, "n_vehicles": 155, "d": 652, "route_I_counts": {"167": 155}, "source": 5, "target": 6}, {"shape_id": {}, "direction_id": {}, "headsign": {"BRIGNOLE": 154}, "duration_avg": 98.0, "n_vehicles": 154, "d": 724, "route_I_counts": {"167": 154}, "source": 5, "target": 4}, {"shape_id": {}, "direction_id": {}, "headsign": {"BRIN": 155}, "duration_avg": 299.61290322580646, "n_vehicles": 155, "d": 2120, "route_I_counts": {"167": 155}, "source": 6, "target": 7}, {"shape_id": {}, "direction_id": {}, "headsign": {"BRIGNOLE": 154}, "duration_avg": 120.0, "n_vehicles": 154, "d": 652, "route_I_counts": {"167": 154}, "source": 6, "target": 5}, {"shape_id": {}, "direction_id": {}, "headsign": {"BRIGNOLE": 155}, "duration_avg": 240.0, "n_vehicles": 155, "d": 2120, "route_I_counts": {"167": 155}, "source": 7, "target": 6}]}