{"directed": true, "multigraph": false, "graph": {}, "nodes": [{"lat": 10.1099, "lon": 76.3495, "name": "Aluva", "original_ids": [1], "id": 0}, {"lat": 10.0951, "lon": 76.3466, "name": "Pulinchudu", "original_ids": [2], "id": 1}, {"lat": 10.0873, "lon": 76.3428, "name": "CompanyPady", "original_ids": [3], "id": 2}, {"lat": 10.0793, "lon": 76.3389, "name": "Ambattukavu", "original_ids": [4], "id": 3}, {"lat": 10.0727, "lon": 76.3336, "name": "Muttom", "original_ids": [5], "id": 4}, {"lat": 10.0586, "lon": 76.322, "name": "Kalamassery", "original_ids": [6], "id": 5}, {"lat": 10.0467, "lon": 76.3182, "name": "Cusat", "original_ids": [7], "id": 6}, {"lat": 10.0361, "lon": 76.3144, "name": "Pathadipalam", "original_ids": [8], "id": 7}, {"lat": 10.0251, "lon": 76.3083, "name": "Edapally Jn.", "original_ids": [9], "id": 8}, {"lat": 10.0152, "lon": 76.3023, "name": "Changampuzha Park", "original_ids": [10], "id": 9}, {"lat": 10.0064, "lon": 76.3048, "name": "Palarivattom", "original_ids": [11], "id": 10}, {"lat": 10.0002, "lon": 76.2989, "name": "JLN Stadium", "original_ids": [12], "id": 11}, {"lat": 9.9943, "lon": 76.2914, "name": "Kaloor", "original_ids": [13], "id": 12}, {"lat": 9.9914, "lon": 76.2884, "name": "Town Hall", "original_ids": [14], "id": 13}, {"lat": 9.9834, "lon": 76.2823, "name": "MG Road", "original_ids": [15], "id": 14}, {"lat": 9.9732, "lon": 76.2851, "name": "Maharaja College", "original_ids": [16], "id": 15}, {"lat": 9.9685, "lon": 76.2893, "name": "Ernakulam South", "original_ids": [17], "id": 16}, {"lat": 9.9665, "lon": 76.2981, "name": "Kadavanthara", "original_ids": [18], "id": 17}, {"lat": 9.9671, "lon": 76.3082, "name": "Elamkulam", "original_ids": [19], "id": 18}, {"lat": 9.9674, "lon": 76.3204, "name": "Vyttila", "original_ids": [20], "id": 19}, {"lat": 9.96, "lon": 76.3236, "name": "Thaikoodam", "original_ids": [21], "id": 20}], "links": [{"shape_id": {"R001_0": 120}, "direction_id": {"0": 120}, "headsign": {"Thaikoodam": 120}, "duration_avg": 120.0, "n_vehicles": 120, "d": 1677, "route_I_counts": {"1": 120}, "source": 0, "target": 1}, {"shape_id": {"R001_0": 119}, "direction_id": {"0": 119}, "headsign": {"Thaikoodam": 119}, "duration_avg": 89.94117647058823, "n_vehicles": 119, "d": 963, "route_I_counts": {"1": 119}, "source": 1, "target": 2}, {"shape_id": {"R001_1": 115}, "direction_id": {"1": 115}, "headsign": {"Aluva": 115}, "duration_avg": 120.0, "n_vehicles": 115, "d": 1677, "route_I_counts": {"1": 115}, "source": 1, "target": 0}, {"shape_id": {"R001_0": 119}, "direction_id": {"0": 119}, "headsign": {"Thaikoodam": 119}, "duration_avg": 88.03361344537815, "n_vehicles": 119, "d": 987, "route_I_counts": {"1": 119}, "source": 2, "target": 3}, {"shape_id": {"R001_1": 116}, "direction_id": {"1": 116}, "headsign": {"Aluva": 116}, "duration_avg": 91.4396551724138, "n_vehicles": 116, "d": 963, "route_I_counts": {"1": 116}, "source": 2, "target": 1}, {"shape_id": {"R001_0": 119}, "direction_id": {"0": 119}, "headsign": {"Thaikoodam": 119}, "duration_avg": 89.10084033613445, "n_vehicles": 119, "d": 936, "route_I_counts": {"1": 119}, "source": 3, "target": 4}, {"shape_id": {"R001_1": 116}, "direction_id": {"1": 116}, "headsign": {"Aluva": 116}, "duration_avg": 89.5, "n_vehicles": 116, "d": 987, "route_I_counts": {"1": 116}, "source": 3, "target": 2}, {"shape_id": {"R001_0": 118}, "direction_id": {"0": 118}, "headsign": {"Thaikoodam": 118}, "duration_avg": 150.46610169491527, "n_vehicles": 118, "d": 2019, "route_I_counts": {"1": 118}, "source": 4, "target": 5}, {"shape_id": {"R001_1": 116}, "direction_id": {"1": 116}, "headsign": {"Aluva": 116}, "duration_avg": 87.47413793103448, "n_vehicles": 116, "d": 936, "route_I_counts": {"1": 116}, "source": 4, "target": 3}, {"shape_id": {"R001_0": 118}, "direction_id": {"0": 118}, "headsign": {"Thaikoodam": 118}, "duration_avg": 111.91525423728814, "n_vehicles": 118, "d": 1388, "route_I_counts": {"1": 118}, "source": 5, "target": 6}, {"shape_id": {"R001_1": 116}, "direction_id": {"1": 116}, "headsign": {"Aluva": 116}, "duration_avg": 152.08620689655172, "n_vehicles": 116, "d": 2019, "route_I_counts": {"1": 116}, "source": 5, "target": 4}, {"shape_id": {"R001_0": 118}, "direction_id": {"0": 118}, "headsign": {"Thaikoodam": 118}, "duration_avg": 104.00847457627118, "n_vehicles": 118, "d": 1251, "route_I_counts": {"1": 118}, "source": 6, "target": 7}, {"shape_id": {"R001_1": 117}, "direction_id": {"1": 117}, "headsign": {"Aluva": 117}, "duration_avg": 113.2051282051282, "n_vehicles": 117, "d": 1388, "route_I_counts": {"1": 117}, "source": 6, "target": 5}, {"shape_id": {"R001_0": 118}, "direction_id": {"0": 118}, "headsign": {"Thaikoodam": 118}, "duration_avg": 112.85593220338983, "n_vehicles": 118, "d": 1395, "route_I_counts": {"1": 118}, "source": 7, "target": 8}, {"shape_id": {"R001_1": 117}, "direction_id": {"1": 117}, "headsign": {"Aluva": 117}, "duration_avg": 104.28205128205128, "n_vehicles": 117, "d": 1251, "route_I_counts": {"1": 117}, "source": 7, "target": 6}, {"shape_id": {"R001_0": 117}, "direction_id": {"0": 117}, "headsign": {"Thaikoodam": 117}, "duration_avg": 119.87179487179488, "n_vehicles": 117, "d": 1283, "route_I_counts": {"1": 117}, "source": 8, "target": 9}, {"shape_id": {"R001_1": 117}, "direction_id": {"1": 117}, "headsign": {"Aluva": 117}, "duration_avg": 111.57264957264957, "n_vehicles": 117, "d": 1395, "route_I_counts": {"1": 117}, "source": 8, "target": 7}, {"shape_id": {"R001_0": 117}, "direction_id": {"0": 117}, "headsign": {"Thaikoodam": 117}, "duration_avg": 92.32478632478633, "n_vehicles": 117, "d": 1017, "route_I_counts": {"1": 117}, "source": 9, "target": 10}, {"shape_id": {"R001_1": 118}, "direction_id": {"1": 118}, "headsign": {"Aluva": 118}, "duration_avg": 114.61016949152543, "n_vehicles": 118, "d": 1283, "route_I_counts": {"1": 118}, "source": 9, "target": 8}, {"shape_id": {"R001_0": 117}, "direction_id": {"0": 117}, "headsign": {"Thaikoodam": 117}, "duration_avg": 111.98290598290598, "n_vehicles": 117, "d": 945, "route_I_counts": {"1": 117}, "source": 10, "target": 11}, {"shape_id": {"R001_1": 118}, "direction_id": {"1": 118}, "headsign": {"Aluva": 118}, "duration_avg": 101.34745762711864, "n_vehicles": 118, "d": 1017, "route_I_counts": {"1": 118}, "source": 10, "target": 9}, {"shape_id": {"R001_0": 116}, "direction_id": {"0": 116}, "headsign": {"Thaikoodam": 116}, "duration_avg": 94.43103448275862, "n_vehicles": 116, "d": 1052, "route_I_counts": {"1": 116}, "source": 11, "target": 12}, {"shape_id": {"R001_1": 118}, "direction_id": {"1": 118}, "headsign": {"Aluva": 118}, "duration_avg": 111.20338983050847, "n_vehicles": 118, "d": 945, "route_I_counts": {"1": 118}, "source": 11, "target": 10}, {"shape_id": {"R001_0": 116}, "direction_id": {"0": 116}, "headsign": {"Thaikoodam": 116}, "duration_avg": 57.672413793103445, "n_vehicles": 116, "d": 460, "route_I_counts": {"1": 116}, "source": 12, "target": 13}, {"shape_id": {"R001_1": 119}, "direction_id": {"1": 119}, "headsign": {"Aluva": 119}, "duration_avg": 93.28571428571429, "n_vehicles": 119, "d": 1052, "route_I_counts": {"1": 119}, "source": 12, "target": 11}, {"shape_id": {"R001_0": 116}, "direction_id": {"0": 116}, "headsign": {"Thaikoodam": 116}, "duration_avg": 127.08620689655173, "n_vehicles": 116, "d": 1113, "route_I_counts": {"1": 116}, "source": 13, "target": 14}, {"shape_id": {"R001_1": 119}, "direction_id": {"1": 119}, "headsign": {"Aluva": 119}, "duration_avg": 54.857142857142854, "n_vehicles": 119, "d": 460, "route_I_counts": {"1": 119}, "source": 13, "target": 12}, {"shape_id": {"R001_0": 115}, "direction_id": {"0": 115}, "headsign": {"Thaikoodam": 115}, "duration_avg": 117.4695652173913, "n_vehicles": 115, "d": 1176, "route_I_counts": {"1": 115}, "source": 14, "target": 15}, {"shape_id": {"R001_1": 119}, "direction_id": {"1": 119}, "headsign": {"Aluva": 119}, "duration_avg": 114.96638655462185, "n_vehicles": 119, "d": 1113, "route_I_counts": {"1": 119}, "source": 14, "target": 13}, {"shape_id": {"R001_0": 115}, "direction_id": {"0": 115}, "headsign": {"Thaikoodam": 115}, "duration_avg": 121.67826086956522, "n_vehicles": 115, "d": 696, "route_I_counts": {"1": 115}, "source": 15, "target": 16}, {"shape_id": {"R001_1": 120}, "direction_id": {"1": 120}, "headsign": {"Aluva": 120}, "duration_avg": 97.5, "n_vehicles": 120, "d": 1176, "route_I_counts": {"1": 120}, "source": 15, "target": 14}, {"shape_id": {"R001_0": 115}, "direction_id": {"0": 115}, "headsign": {"Thaikoodam": 115}, "duration_avg": 125.90434782608696, "n_vehicles": 115, "d": 990, "route_I_counts": {"1": 115}, "source": 16, "target": 17}, {"shape_id": {"R001_1": 119}, "direction_id": {"1": 119}, "headsign": {"Aluva": 119}, "duration_avg": 120.58823529411765, "n_vehicles": 119, "d": 696, "route_I_counts": {"1": 119}, "source": 16, "target": 15}, {"shape_id": {"R001_0": 114}, "direction_id": {"0": 114}, "headsign": {"Thaikoodam": 114}, "duration_avg": 107.36842105263158, "n_vehicles": 114, "d": 1109, "route_I_counts": {"1": 114}, "source": 17, "target": 18}, {"shape_id": {"R001_1": 120}, "direction_id": {"1": 120}, "headsign": {"Aluva": 120}, "duration_avg": 125.25, "n_vehicles": 120, "d": 990, "route_I_counts": {"1": 120}, "source": 17, "target": 16}, {"shape_id": {"R001_0": 114}, "direction_id": {"0": 114}, "headsign": {"Thaikoodam": 114}, "duration_avg": 121.6842105263158, "n_vehicles": 114, "d": 1338, "route_I_counts": {"1": 114}, "source": 18, "target": 19}, {"shape_id": {"R001_1": 120}, "direction_id": {"1": 120}, "headsign": {"Aluva": 120}, "duration_avg": 107.25, "n_vehicles": 120, "d": 1109, "route_I_counts": {"1": 120}, "source": 18, "target": 17}, {"shape_id": {"R001_0": 113}, "direction_id": {"0": 113}, "headsign": {"Thaikoodam": 113}, "duration_avg": 115.79646017699115, "n_vehicles": 113, "d": 895, "route_I_counts": {"1": 113}, "source": 19, "target": 20}, {"shape_id": {"R001_1": 120}, "direction_id": {"1": 120}, "headsign": {"Aluva": 120}, "duration_avg": 121.16666666666667, "n_vehicles": 120, "d": 1338, "route_I_counts": {"1": 120}, "source": 19, "target": 18}, {"shape_id": {"R001_1": 121}, "direction_id": {"1": 121}, "headsign": {"Aluva": 121}, "duration_avg": 97.86776859504133, "n_vehicles": 121, "d": 895, "route_I_counts": {"1": 121}, "source": 20, "target": 19}]}