{"directed": true, "multigraph": false, "graph": {}, "nodes": [{"lat": 38.734, "lon": -9.15365, "name": "S\u00c3O SEBASTI\u00c3O", "original_ids": [47], "id": 0}, {"lat": 38.73483, "lon": -9.14528, "name": "SALDANHA", "original_ids": [45], "id": 1}, {"lat": 38.73696, "lon": -9.13389, "name": "ALAMEDA", "original_ids": [2], "id": 2}, {"lat": 38.74019, "lon": -9.12297, "name": "OLAIAS", "original_ids": [32], "id": 3}, {"lat": 38.7476, "lon": -9.11772, "name": "BELA VISTA", "original_ids": [13], "id": 4}, {"lat": 38.75475, "lon": -9.11404, "name": "CHELAS", "original_ids": [19], "id": 5}, {"lat": 38.76084, "lon": -9.11185, "name": "OLIVAIS", "original_ids": [33], "id": 6}, {"lat": 38.76294, "lon": -9.10518, "name": "CABO RUIVO", "original_ids": [14], "id": 7}, {"lat": 38.76786, "lon": -9.09973, "name": "ORIENTE", "original_ids": [34], "id": 8}, {"lat": 38.77496, "lon": -9.10304, "name": "MOSCAVIDE", "original_ids": [30], "id": 9}, {"lat": 38.77499, "lon": -9.11538, "name": "ENCARNA\u00c7\u00c3O", "original_ids": [22], "id": 10}, {"lat": 38.76862, "lon": -9.12833, "name": "AEROPORTO", "original_ids": [1], "id": 11}, {"lat": 38.76016, "lon": -9.15788, "name": "CAMPO GRANDE", "original_ids": [16], "id": 12}, {"lat": 38.75144, "lon": -9.15915, "name": "CIDADE UNIVERSIT\u00c1RIA", "original_ids": [20], "id": 13}, {"lat": 38.74698, "lon": -9.14823, "name": "ENTRECAMPOS", "original_ids": [23], "id": 14}, {"lat": 38.74079, "lon": -9.14673, "name": "CAMPO PEQUENO", "original_ids": [17], "id": 15}, {"lat": 38.73024, "lon": -9.14703, "name": "PICOAS", "original_ids": [36], "id": 16}, {"lat": 38.72593, "lon": -9.14965, "name": "MARQU\u00caS DE POMBAL", "original_ids": [28], "id": 17}, {"lat": 38.72011, "lon": -9.15486, "name": "RATO", "original_ids": [40], "id": 18}, {"lat": 38.76745, "lon": -9.15549, "name": "QUINTA DAS CONCHAS", "original_ids": [39], "id": 19}, {"lat": 38.77329, "lon": -9.15933, "name": "LUMIAR", "original_ids": [27], "id": 20}, {"lat": 38.77953, "lon": -9.15961, "name": "AMEIXOEIRA", "original_ids": [7], "id": 21}, {"lat": 38.78576, "lon": -9.1719, "name": "SR. ROUBADO", "original_ids": [48], "id": 22}, {"lat": 38.79344, "lon": -9.17343, "name": "ODIVELAS", "original_ids": [31], "id": 23}, {"lat": 38.75221, "lon": -9.22414, "name": "REBOLEIRA", "original_ids": [41], "id": 24}, {"lat": 38.75855, "lon": -9.21794, "name": "AMADORA ESTE", "original_ids": [6], "id": 25}, {"lat": 38.76035, "lon": -9.20455, "name": "ALFORNELOS", "original_ids": [3], "id": 26}, {"lat": 38.76223, "lon": -9.19697, "name": "PONTINHA", "original_ids": [37], "id": 27}, {"lat": 38.75901, "lon": -9.19276, "name": "CARNIDE", "original_ids": [18], "id": 28}, {"lat": 38.75372, "lon": -9.18987, "name": "COL\u00c9GIO MILITAR-LUZ", "original_ids": [21], "id": 29}, {"lat": 38.74993, "lon": -9.18007, "name": "ALTO DOS MOINHOS", "original_ids": [4], "id": 30}, {"lat": 38.74849, "lon": -9.17252, "name": "LARANJEIRAS", "original_ids": [26], "id": 31}, {"lat": 38.7412, "lon": -9.16836, "name": "JARDIM ZOOL\u00d3GICO", "original_ids": [25], "id": 32}, {"lat": 38.7377, "lon": -9.15936, "name": "PRA\u00c7A DE ESPANHA", "original_ids": [38], "id": 33}, {"lat": 38.72914, "lon": -9.15015, "name": "PARQUE", "original_ids": [35], "id": 34}, {"lat": 38.71934, "lon": -9.14513, "name": "AVENIDA", "original_ids": [11], "id": 35}, {"lat": 38.7161, "lon": -9.14239, "name": "RESTAURADORES", "original_ids": [42], "id": 36}, {"lat": 38.71041, "lon": -9.14018, "name": "BAIXA-CHIADO", "original_ids": [12], "id": 37}, {"lat": 38.70722, "lon": -9.13286, "name": "TERREIRO DO PA\u00c7O", "original_ids": [50], "id": 38}, {"lat": 38.71378, "lon": -9.12212, "name": "SANTA APOL\u00d3NIA", "original_ids": [46], "id": 39}, {"lat": 38.76017, "lon": -9.16609, "name": "TELHEIRAS", "original_ids": [49], "id": 40}, {"lat": 38.75327, "lon": -9.1441, "name": "ALVALADE", "original_ids": [5], "id": 41}, {"lat": 38.74808, "lon": -9.1413, "name": "ROMA", "original_ids": [43], "id": 42}, {"lat": 38.74228, "lon": -9.13349, "name": "AREEIRO", "original_ids": [9], "id": 43}, {"lat": 38.73285, "lon": -9.1343, "name": "ARROIOS", "original_ids": [10], "id": 44}, {"lat": 38.72703, "lon": -9.13488, "name": "ANJOS", "original_ids": [8], "id": 45}, {"lat": 38.72326, "lon": -9.13526, "name": "INTENDENTE", "original_ids": [24], "id": 46}, {"lat": 38.71762, "lon": -9.1358, "name": "MARTIM MONIZ", "original_ids": [29], "id": 47}, {"lat": 38.71402, "lon": -9.13796, "name": "ROSSIO", "original_ids": [44], "id": 48}, {"lat": 38.70611, "lon": -9.14612, "name": "CAIS DO SODR\u00c9", "original_ids": [15], "id": 49}], "links": [{"shape_id": {"166": 309}, "direction_id": {}, "headsign": {"": 309}, "duration_avg": 61.0, "n_vehicles": 309, "d": 620, "route_I_counts": {"5": 309}, "source": 0, "target": 34}, {"shape_id": {"167": 311}, "direction_id": {}, "headsign": {"": 311}, "duration_avg": 74.0, "n_vehicles": 311, "d": 644, "route_I_counts": {"6": 311}, "source": 0, "target": 33}, {"shape_id": {"170": 290}, "direction_id": {}, "headsign": {"": 290}, "duration_avg": 87.0, "n_vehicles": 290, "d": 732, "route_I_counts": {"1": 290}, "source": 0, "target": 1}, {"shape_id": {"164": 274, "4921": 35}, "direction_id": {}, "headsign": {"": 309}, "duration_avg": 66.0, "n_vehicles": 309, "d": 675, "route_I_counts": {"3": 274, "10": 35}, "source": 1, "target": 15}, {"shape_id": {"165": 272, "4922": 34}, "direction_id": {}, "headsign": {"": 306}, "duration_avg": 56.0, "n_vehicles": 306, "d": 533, "route_I_counts": {"2": 34, "4": 272}, "source": 1, "target": 16}, {"shape_id": {"170": 290}, "direction_id": {}, "headsign": {"": 290}, "duration_avg": 95.0, "n_vehicles": 290, "d": 1017, "route_I_counts": {"1": 290}, "source": 1, "target": 2}, {"shape_id": {"171": 286}, "direction_id": {}, "headsign": {"": 286}, "duration_avg": 72.0, "n_vehicles": 286, "d": 732, "route_I_counts": {"9": 286}, "source": 1, "target": 0}, {"shape_id": {"168": 297}, "direction_id": {}, "headsign": {"": 297}, "duration_avg": 38.0, "n_vehicles": 297, "d": 458, "route_I_counts": {"7": 297}, "source": 2, "target": 44}, {"shape_id": {"169": 297}, "direction_id": {}, "headsign": {"": 297}, "duration_avg": 62.0, "n_vehicles": 297, "d": 593, "route_I_counts": {"8": 297}, "source": 2, "target": 43}, {"shape_id": {"170": 289}, "direction_id": {}, "headsign": {"": 289}, "duration_avg": 84.0, "n_vehicles": 289, "d": 1014, "route_I_counts": {"1": 289}, "source": 2, "target": 3}, {"shape_id": {"171": 287}, "direction_id": {}, "headsign": {"": 287}, "duration_avg": 96.0, "n_vehicles": 287, "d": 1017, "route_I_counts": {"9": 287}, "source": 2, "target": 1}, {"shape_id": {"170": 289}, "direction_id": {}, "headsign": {"": 289}, "duration_avg": 86.0, "n_vehicles": 289, "d": 942, "route_I_counts": {"1": 289}, "source": 3, "target": 4}, {"shape_id": {"171": 287}, "direction_id": {}, "headsign": {"": 287}, "duration_avg": 84.0, "n_vehicles": 287, "d": 1014, "route_I_counts": {"9": 287}, "source": 3, "target": 2}, {"shape_id": {"170": 289}, "direction_id": {}, "headsign": {"": 289}, "duration_avg": 83.0, "n_vehicles": 289, "d": 857, "route_I_counts": {"1": 289}, "source": 4, "target": 5}, {"shape_id": {"171": 287}, "direction_id": {}, "headsign": {"": 287}, "duration_avg": 87.0, "n_vehicles": 287, "d": 942, "route_I_counts": {"9": 287}, "source": 4, "target": 3}, {"shape_id": {"170": 288}, "direction_id": {}, "headsign": {"": 288}, "duration_avg": 67.0, "n_vehicles": 288, "d": 704, "route_I_counts": {"1": 288}, "source": 5, "target": 6}, {"shape_id": {"171": 288}, "direction_id": {}, "headsign": {"": 288}, "duration_avg": 80.0, "n_vehicles": 288, "d": 857, "route_I_counts": {"9": 288}, "source": 5, "target": 4}, {"shape_id": {"170": 288}, "direction_id": {}, "headsign": {"": 288}, "duration_avg": 65.0, "n_vehicles": 288, "d": 624, "route_I_counts": {"1": 288}, "source": 6, "target": 7}, {"shape_id": {"171": 288}, "direction_id": {}, "headsign": {"": 288}, "duration_avg": 66.0, "n_vehicles": 288, "d": 704, "route_I_counts": {"9": 288}, "source": 6, "target": 5}, {"shape_id": {"170": 288}, "direction_id": {}, "headsign": {"": 288}, "duration_avg": 80.0, "n_vehicles": 288, "d": 723, "route_I_counts": {"1": 288}, "source": 7, "target": 8}, {"shape_id": {"171": 289}, "direction_id": {}, "headsign": {"": 289}, "duration_avg": 65.0, "n_vehicles": 289, "d": 624, "route_I_counts": {"9": 289}, "source": 7, "target": 6}, {"shape_id": {"170": 287}, "direction_id": {}, "headsign": {"": 287}, "duration_avg": 92.0, "n_vehicles": 287, "d": 840, "route_I_counts": {"1": 287}, "source": 8, "target": 9}, {"shape_id": {"171": 289}, "direction_id": {}, "headsign": {"": 289}, "duration_avg": 82.0, "n_vehicles": 289, "d": 723, "route_I_counts": {"9": 289}, "source": 8, "target": 7}, {"shape_id": {"170": 287}, "direction_id": {}, "headsign": {"": 287}, "duration_avg": 104.0, "n_vehicles": 287, "d": 1070, "route_I_counts": {"1": 287}, "source": 9, "target": 10}, {"shape_id": {"171": 289}, "direction_id": {}, "headsign": {"": 289}, "duration_avg": 93.0, "n_vehicles": 289, "d": 840, "route_I_counts": {"9": 289}, "source": 9, "target": 8}, {"shape_id": {"170": 286}, "direction_id": {}, "headsign": {"": 286}, "duration_avg": 120.0, "n_vehicles": 286, "d": 1328, "route_I_counts": {"1": 286}, "source": 10, "target": 11}, {"shape_id": {"171": 290}, "direction_id": {}, "headsign": {"": 290}, "duration_avg": 106.0, "n_vehicles": 290, "d": 1070, "route_I_counts": {"9": 290}, "source": 10, "target": 9}, {"shape_id": {"171": 290}, "direction_id": {}, "headsign": {"": 290}, "duration_avg": 121.0, "n_vehicles": 290, "d": 1328, "route_I_counts": {"9": 290}, "source": 11, "target": 10}, {"shape_id": {"164": 272}, "direction_id": {}, "headsign": {"": 272}, "duration_avg": 87.0, "n_vehicles": 272, "d": 837, "route_I_counts": {"3": 272}, "source": 12, "target": 19}, {"shape_id": {"165": 273, "4922": 34}, "direction_id": {}, "headsign": {"": 307}, "duration_avg": 119.0, "n_vehicles": 307, "d": 976, "route_I_counts": {"2": 34, "4": 273}, "source": 12, "target": 13}, {"shape_id": {"168": 298}, "direction_id": {}, "headsign": {"": 298}, "duration_avg": 159.0, "n_vehicles": 298, "d": 1420, "route_I_counts": {"7": 298}, "source": 12, "target": 41}, {"shape_id": {"169": 296}, "direction_id": {}, "headsign": {"": 296}, "duration_avg": 74.0, "n_vehicles": 296, "d": 712, "route_I_counts": {"8": 296}, "source": 12, "target": 40}, {"shape_id": {"164": 273, "4921": 35}, "direction_id": {}, "headsign": {"": 308}, "duration_avg": 120.0, "n_vehicles": 308, "d": 976, "route_I_counts": {"3": 273, "10": 35}, "source": 13, "target": 12}, {"shape_id": {"165": 272, "4922": 34}, "direction_id": {}, "headsign": {"": 306}, "duration_avg": 117.0, "n_vehicles": 306, "d": 1070, "route_I_counts": {"2": 34, "4": 272}, "source": 13, "target": 14}, {"shape_id": {"164": 274, "4921": 35}, "direction_id": {}, "headsign": {"": 309}, "duration_avg": 117.0, "n_vehicles": 309, "d": 1070, "route_I_counts": {"3": 274, "10": 35}, "source": 14, "target": 13}, {"shape_id": {"165": 272, "4922": 34}, "direction_id": {}, "headsign": {"": 306}, "duration_avg": 70.0, "n_vehicles": 306, "d": 701, "route_I_counts": {"2": 34, "4": 272}, "source": 14, "target": 15}, {"shape_id": {"164": 274, "4921": 35}, "direction_id": {}, "headsign": {"": 309}, "duration_avg": 69.0, "n_vehicles": 309, "d": 701, "route_I_counts": {"3": 274, "10": 35}, "source": 15, "target": 14}, {"shape_id": {"165": 272, "4922": 34}, "direction_id": {}, "headsign": {"": 306}, "duration_avg": 67.0, "n_vehicles": 306, "d": 675, "route_I_counts": {"2": 34, "4": 272}, "source": 15, "target": 1}, {"shape_id": {"164": 275, "4921": 35}, "direction_id": {}, "headsign": {"": 310}, "duration_avg": 54.0, "n_vehicles": 310, "d": 533, "route_I_counts": {"3": 275, "10": 35}, "source": 16, "target": 1}, {"shape_id": {"165": 271, "4922": 34}, "direction_id": {}, "headsign": {"": 305}, "duration_avg": 66.0, "n_vehicles": 305, "d": 531, "route_I_counts": {"2": 34, "4": 271}, "source": 16, "target": 17}, {"shape_id": {"164": 275, "4921": 35}, "direction_id": {}, "headsign": {"": 310}, "duration_avg": 66.0, "n_vehicles": 310, "d": 531, "route_I_counts": {"3": 275, "10": 35}, "source": 17, "target": 16}, {"shape_id": {"165": 270, "4922": 34}, "direction_id": {}, "headsign": {"": 304}, "duration_avg": 68.0, "n_vehicles": 304, "d": 790, "route_I_counts": {"2": 34, "4": 270}, "source": 17, "target": 18}, {"shape_id": {"166": 309}, "direction_id": {}, "headsign": {"": 309}, "duration_avg": 66.0, "n_vehicles": 309, "d": 832, "route_I_counts": {"5": 309}, "source": 17, "target": 35}, {"shape_id": {"167": 311}, "direction_id": {}, "headsign": {"": 311}, "duration_avg": 57.0, "n_vehicles": 311, "d": 359, "route_I_counts": {"6": 311}, "source": 17, "target": 34}, {"shape_id": {"164": 276, "4921": 35}, "direction_id": {}, "headsign": {"": 311}, "duration_avg": 68.0, "n_vehicles": 311, "d": 790, "route_I_counts": {"3": 276, "10": 35}, "source": 18, "target": 17}, {"shape_id": {"164": 272}, "direction_id": {}, "headsign": {"": 272}, "duration_avg": 68.0, "n_vehicles": 272, "d": 730, "route_I_counts": {"3": 272}, "source": 19, "target": 20}, {"shape_id": {"165": 274}, "direction_id": {}, "headsign": {"": 274}, "duration_avg": 87.0, "n_vehicles": 274, "d": 837, "route_I_counts": {"4": 274}, "source": 19, "target": 12}, {"shape_id": {"164": 272}, "direction_id": {}, "headsign": {"": 272}, "duration_avg": 71.0, "n_vehicles": 272, "d": 695, "route_I_counts": {"3": 272}, "source": 20, "target": 21}, {"shape_id": {"165": 274}, "direction_id": {}, "headsign": {"": 274}, "duration_avg": 69.0, "n_vehicles": 274, "d": 730, "route_I_counts": {"4": 274}, "source": 20, "target": 19}, {"shape_id": {"164": 271}, "direction_id": {}, "headsign": {"": 271}, "duration_avg": 148.0, "n_vehicles": 271, "d": 1272, "route_I_counts": {"3": 271}, "source": 21, "target": 22}, {"shape_id": {"165": 274}, "direction_id": {}, "headsign": {"": 274}, "duration_avg": 71.0, "n_vehicles": 274, "d": 695, "route_I_counts": {"4": 274}, "source": 21, "target": 20}, {"shape_id": {"164": 270}, "direction_id": {}, "headsign": {"": 270}, "duration_avg": 91.0, "n_vehicles": 270, "d": 865, "route_I_counts": {"3": 270}, "source": 22, "target": 23}, {"shape_id": {"165": 275}, "direction_id": {}, "headsign": {"": 275}, "duration_avg": 149.0, "n_vehicles": 275, "d": 1272, "route_I_counts": {"4": 275}, "source": 22, "target": 21}, {"shape_id": {"165": 276}, "direction_id": {}, "headsign": {"": 276}, "duration_avg": 92.0, "n_vehicles": 276, "d": 865, "route_I_counts": {"4": 276}, "source": 23, "target": 22}, {"shape_id": {"166": 313}, "direction_id": {}, "headsign": {"": 313}, "duration_avg": 84.0, "n_vehicles": 313, "d": 887, "route_I_counts": {"5": 313}, "source": 24, "target": 25}, {"shape_id": {"166": 313}, "direction_id": {}, "headsign": {"": 313}, "duration_avg": 111.0, "n_vehicles": 313, "d": 1179, "route_I_counts": {"5": 313}, "source": 25, "target": 26}, {"shape_id": {"167": 307}, "direction_id": {}, "headsign": {"": 307}, "duration_avg": 84.0, "n_vehicles": 307, "d": 887, "route_I_counts": {"6": 307}, "source": 25, "target": 24}, {"shape_id": {"166": 313}, "direction_id": {}, "headsign": {"": 313}, "duration_avg": 72.0, "n_vehicles": 313, "d": 690, "route_I_counts": {"5": 313}, "source": 26, "target": 27}, {"shape_id": {"167": 307}, "direction_id": {}, "headsign": {"": 307}, "duration_avg": 113.0, "n_vehicles": 307, "d": 1179, "route_I_counts": {"6": 307}, "source": 26, "target": 25}, {"shape_id": {"166": 313}, "direction_id": {}, "headsign": {"": 313}, "duration_avg": 74.0, "n_vehicles": 313, "d": 511, "route_I_counts": {"5": 313}, "source": 27, "target": 28}, {"shape_id": {"167": 309}, "direction_id": {}, "headsign": {"": 309}, "duration_avg": 69.0, "n_vehicles": 309, "d": 690, "route_I_counts": {"6": 309}, "source": 27, "target": 26}, {"shape_id": {"166": 311}, "direction_id": {}, "headsign": {"": 311}, "duration_avg": 81.0, "n_vehicles": 311, "d": 640, "route_I_counts": {"5": 311}, "source": 28, "target": 29}, {"shape_id": {"167": 309}, "direction_id": {}, "headsign": {"": 309}, "duration_avg": 74.0, "n_vehicles": 309, "d": 511, "route_I_counts": {"6": 309}, "source": 28, "target": 27}, {"shape_id": {"166": 311}, "direction_id": {}, "headsign": {"": 311}, "duration_avg": 84.0, "n_vehicles": 311, "d": 949, "route_I_counts": {"5": 311}, "source": 29, "target": 30}, {"shape_id": {"167": 309}, "direction_id": {}, "headsign": {"": 309}, "duration_avg": 90.0, "n_vehicles": 309, "d": 640, "route_I_counts": {"6": 309}, "source": 29, "target": 28}, {"shape_id": {"166": 311}, "direction_id": {}, "headsign": {"": 311}, "duration_avg": 71.0, "n_vehicles": 311, "d": 674, "route_I_counts": {"5": 311}, "source": 30, "target": 31}, {"shape_id": {"167": 309}, "direction_id": {}, "headsign": {"": 309}, "duration_avg": 86.0, "n_vehicles": 309, "d": 949, "route_I_counts": {"6": 309}, "source": 30, "target": 29}, {"shape_id": {"166": 311}, "direction_id": {}, "headsign": {"": 311}, "duration_avg": 87.0, "n_vehicles": 311, "d": 888, "route_I_counts": {"5": 311}, "source": 31, "target": 32}, {"shape_id": {"167": 309}, "direction_id": {}, "headsign": {"": 309}, "duration_avg": 71.0, "n_vehicles": 309, "d": 674, "route_I_counts": {"6": 309}, "source": 31, "target": 30}, {"shape_id": {"166": 311}, "direction_id": {}, "headsign": {"": 311}, "duration_avg": 84.0, "n_vehicles": 311, "d": 873, "route_I_counts": {"5": 311}, "source": 32, "target": 33}, {"shape_id": {"167": 311}, "direction_id": {}, "headsign": {"": 311}, "duration_avg": 83.0, "n_vehicles": 311, "d": 888, "route_I_counts": {"6": 311}, "source": 32, "target": 31}, {"shape_id": {"166": 310}, "direction_id": {}, "headsign": {"": 310}, "duration_avg": 70.0, "n_vehicles": 310, "d": 644, "route_I_counts": {"5": 310}, "source": 33, "target": 0}, {"shape_id": {"167": 311}, "direction_id": {}, "headsign": {"": 311}, "duration_avg": 85.0, "n_vehicles": 311, "d": 873, "route_I_counts": {"6": 311}, "source": 33, "target": 32}, {"shape_id": {"166": 309}, "direction_id": {}, "headsign": {"": 309}, "duration_avg": 56.0, "n_vehicles": 309, "d": 359, "route_I_counts": {"5": 309}, "source": 34, "target": 17}, {"shape_id": {"167": 311}, "direction_id": {}, "headsign": {"": 311}, "duration_avg": 61.0, "n_vehicles": 311, "d": 620, "route_I_counts": {"6": 311}, "source": 34, "target": 0}, {"shape_id": {"166": 309}, "direction_id": {}, "headsign": {"": 309}, "duration_avg": 46.0, "n_vehicles": 309, "d": 432, "route_I_counts": {"5": 309}, "source": 35, "target": 36}, {"shape_id": {"167": 311}, "direction_id": {}, "headsign": {"": 311}, "duration_avg": 67.0, "n_vehicles": 311, "d": 832, "route_I_counts": {"6": 311}, "source": 35, "target": 17}, {"shape_id": {"166": 309}, "direction_id": {}, "headsign": {"": 309}, "duration_avg": 64.0, "n_vehicles": 309, "d": 661, "route_I_counts": {"5": 309}, "source": 36, "target": 37}, {"shape_id": {"167": 313}, "direction_id": {}, "headsign": {"": 313}, "duration_avg": 46.0, "n_vehicles": 313, "d": 432, "route_I_counts": {"6": 313}, "source": 36, "target": 35}, {"shape_id": {"166": 308}, "direction_id": {}, "headsign": {"": 308}, "duration_avg": 80.0, "n_vehicles": 308, "d": 728, "route_I_counts": {"5": 308}, "source": 37, "target": 38}, {"shape_id": {"167": 313}, "direction_id": {}, "headsign": {"": 313}, "duration_avg": 66.0, "n_vehicles": 313, "d": 661, "route_I_counts": {"6": 313}, "source": 37, "target": 36}, {"shape_id": {"168": 296}, "direction_id": {}, "headsign": {"": 296}, "duration_avg": 88.0, "n_vehicles": 296, "d": 703, "route_I_counts": {"7": 296}, "source": 37, "target": 49}, {"shape_id": {"169": 299}, "direction_id": {}, "headsign": {"": 299}, "duration_avg": 50.0, "n_vehicles": 299, "d": 445, "route_I_counts": {"8": 299}, "source": 37, "target": 48}, {"shape_id": {"166": 307}, "direction_id": {}, "headsign": {"": 307}, "duration_avg": 130.0, "n_vehicles": 307, "d": 1184, "route_I_counts": {"5": 307}, "source": 38, "target": 39}, {"shape_id": {"167": 313}, "direction_id": {}, "headsign": {"": 313}, "duration_avg": 81.0, "n_vehicles": 313, "d": 728, "route_I_counts": {"6": 313}, "source": 38, "target": 37}, {"shape_id": {"167": 313}, "direction_id": {}, "headsign": {"": 313}, "duration_avg": 130.0, "n_vehicles": 313, "d": 1184, "route_I_counts": {"6": 313}, "source": 39, "target": 38}, {"shape_id": {"168": 299}, "direction_id": {}, "headsign": {"": 299}, "duration_avg": 73.0, "n_vehicles": 299, "d": 712, "route_I_counts": {"7": 299}, "source": 40, "target": 12}, {"shape_id": {"168": 298}, "direction_id": {}, "headsign": {"": 298}, "duration_avg": 64.0, "n_vehicles": 298, "d": 626, "route_I_counts": {"7": 298}, "source": 41, "target": 42}, {"shape_id": {"169": 296}, "direction_id": {}, "headsign": {"": 296}, "duration_avg": 155.0, "n_vehicles": 296, "d": 1420, "route_I_counts": {"8": 296}, "source": 41, "target": 12}, {"shape_id": {"168": 298}, "direction_id": {}, "headsign": {"": 298}, "duration_avg": 97.0, "n_vehicles": 298, "d": 936, "route_I_counts": {"7": 298}, "source": 42, "target": 43}, {"shape_id": {"169": 296}, "direction_id": {}, "headsign": {"": 296}, "duration_avg": 58.0, "n_vehicles": 296, "d": 626, "route_I_counts": {"8": 296}, "source": 42, "target": 41}, {"shape_id": {"168": 298}, "direction_id": {}, "headsign": {"": 298}, "duration_avg": 65.0, "n_vehicles": 298, "d": 593, "route_I_counts": {"7": 298}, "source": 43, "target": 2}, {"shape_id": {"169": 297}, "direction_id": {}, "headsign": {"": 297}, "duration_avg": 96.0, "n_vehicles": 297, "d": 936, "route_I_counts": {"8": 297}, "source": 43, "target": 42}, {"shape_id": {"168": 297}, "direction_id": {}, "headsign": {"": 297}, "duration_avg": 60.0, "n_vehicles": 297, "d": 649, "route_I_counts": {"7": 297}, "source": 44, "target": 45}, {"shape_id": {"169": 298}, "direction_id": {}, "headsign": {"": 298}, "duration_avg": 38.0, "n_vehicles": 298, "d": 458, "route_I_counts": {"8": 298}, "source": 44, "target": 2}, {"shape_id": {"168": 297}, "direction_id": {}, "headsign": {"": 297}, "duration_avg": 43.0, "n_vehicles": 297, "d": 420, "route_I_counts": {"7": 297}, "source": 45, "target": 46}, {"shape_id": {"169": 298}, "direction_id": {}, "headsign": {"": 298}, "duration_avg": 60.0, "n_vehicles": 298, "d": 649, "route_I_counts": {"8": 298}, "source": 45, "target": 44}, {"shape_id": {"168": 296}, "direction_id": {}, "headsign": {"": 296}, "duration_avg": 60.0, "n_vehicles": 296, "d": 629, "route_I_counts": {"7": 296}, "source": 46, "target": 47}, {"shape_id": {"169": 298}, "direction_id": {}, "headsign": {"": 298}, "duration_avg": 45.0, "n_vehicles": 298, "d": 420, "route_I_counts": {"8": 298}, "source": 46, "target": 45}, {"shape_id": {"168": 296}, "direction_id": {}, "headsign": {"": 296}, "duration_avg": 54.0, "n_vehicles": 296, "d": 442, "route_I_counts": {"7": 296}, "source": 47, "target": 48}, {"shape_id": {"169": 298}, "direction_id": {}, "headsign": {"": 298}, "duration_avg": 61.0, "n_vehicles": 298, "d": 629, "route_I_counts": {"8": 298}, "source": 47, "target": 46}, {"shape_id": {"168": 296}, "direction_id": {}, "headsign": {"": 296}, "duration_avg": 50.0, "n_vehicles": 296, "d": 445, "route_I_counts": {"7": 296}, "source": 48, "target": 37}, {"shape_id": {"169": 298}, "direction_id": {}, "headsign": {"": 298}, "duration_avg": 50.0, "n_vehicles": 298, "d": 442, "route_I_counts": {"8": 298}, "source": 48, "target": 47}, {"shape_id": {"169": 299}, "direction_id": {}, "headsign": {"": 299}, "duration_avg": 84.0, "n_vehicles": 299, "d": 703, "route_I_counts": {"8": 299}, "source": 49, "target": 37}]}