{"directed": true, "multigraph": false, "graph": {}, "nodes": [{"lat": 34.168504, "lon": -118.376808, "name": "North Hollywood Station", "original_ids": [168], "id": 0}, {"lat": 34.140002, "lon": -118.362699, "name": "Universal / Studio City Station", "original_ids": [172], "id": 1}, {"lat": 34.101547, "lon": -118.338549, "name": "Hollywood / Highland Station", "original_ids": [177], "id": 2}, {"lat": 34.10163, "lon": -118.32518, "name": "Hollywood / Vine Station", "original_ids": [180], "id": 3}, {"lat": 34.101737, "lon": -118.308117, "name": "Hollywood / Western Station", "original_ids": [184], "id": 4}, {"lat": 34.097708, "lon": -118.291756, "name": "Vermont / Sunset Station", "original_ids": [188], "id": 5}, {"lat": 34.08991, "lon": -118.29173, "name": "Vermont / Santa Monica Station", "original_ids": [192], "id": 6}, {"lat": 34.076526, "lon": -118.291686, "name": "Vermont / Beverly Station", "original_ids": [197], "id": 7}, {"lat": 34.062701, "lon": -118.290082, "name": "Wilshire / Vermont Station", "original_ids": [200], "id": 8}, {"lat": 34.056368, "lon": -118.274879, "name": "Westlake / MacArthur Park Station", "original_ids": [204], "id": 9}, {"lat": 34.048634, "lon": -118.258682, "name": "7th Street / Metro Center Station - Metro Red & Purple Lines", "original_ids": [208], "id": 10}, {"lat": 34.049316, "lon": -118.251259, "name": "Pershing Square Station", "original_ids": [209], "id": 11}, {"lat": 34.0549, "lon": -118.246057, "name": "Civic Center / Grand Park Station", "original_ids": [214], "id": 12}, {"lat": 34.056197, "lon": -118.234249, "name": "Union Station - Metro Red & Purple Lines", "original_ids": [218], "id": 13}, {"lat": 34.061753, "lon": -118.301458, "name": "Wilshire / Normandie Station", "original_ids": [222], "id": 14}, {"lat": 34.061689, "lon": -118.308756, "name": "Wilshire / Western Station", "original_ids": [226], "id": 15}], "links": [{"shape_id": {"802EB_190513": 54}, "direction_id": {"0": 54}, "headsign": {"": 54}, "duration_avg": 240.0, "n_vehicles": 54, "d": 3428, "route_I_counts": {"2": 54}, "source": 0, "target": 1}, {"shape_id": {"802WB_190513": 55}, "direction_id": {"1": 55}, "headsign": {"": 55}, "duration_avg": 240.0, "n_vehicles": 55, "d": 3428, "route_I_counts": {"2": 55}, "source": 1, "target": 0}, {"shape_id": {"802EB_190513": 55}, "direction_id": {"0": 55}, "headsign": {"": 55}, "duration_avg": 240.0, "n_vehicles": 55, "d": 4824, "route_I_counts": {"2": 55}, "source": 1, "target": 2}, {"shape_id": {"802WB_190513": 54}, "direction_id": {"1": 54}, "headsign": {"": 54}, "duration_avg": 240.0, "n_vehicles": 54, "d": 4824, "route_I_counts": {"2": 54}, "source": 2, "target": 1}, {"shape_id": {"802EB_190513": 55}, "direction_id": {"0": 55}, "headsign": {"": 55}, "duration_avg": 120.0, "n_vehicles": 55, "d": 1232, "route_I_counts": {"2": 55}, "source": 2, "target": 3}, {"shape_id": {"802WB_190513": 55}, "direction_id": {"1": 55}, "headsign": {"": 55}, "duration_avg": 120.0, "n_vehicles": 55, "d": 1232, "route_I_counts": {"2": 55}, "source": 3, "target": 2}, {"shape_id": {"802EB_190513": 55}, "direction_id": {"0": 55}, "headsign": {"": 55}, "duration_avg": 120.0, "n_vehicles": 55, "d": 1572, "route_I_counts": {"2": 55}, "source": 3, "target": 4}, {"shape_id": {"802WB_190513": 55}, "direction_id": {"1": 55}, "headsign": {"": 55}, "duration_avg": 180.0, "n_vehicles": 55, "d": 1572, "route_I_counts": {"2": 55}, "source": 4, "target": 3}, {"shape_id": {"802EB_190513": 55}, "direction_id": {"0": 55}, "headsign": {"": 55}, "duration_avg": 120.0, "n_vehicles": 55, "d": 1573, "route_I_counts": {"2": 55}, "source": 4, "target": 5}, {"shape_id": {"802WB_190513": 55}, "direction_id": {"1": 55}, "headsign": {"": 55}, "duration_avg": 120.0, "n_vehicles": 55, "d": 1573, "route_I_counts": {"2": 55}, "source": 5, "target": 4}, {"shape_id": {"802EB_190513": 55}, "direction_id": {"0": 55}, "headsign": {"": 55}, "duration_avg": 60.0, "n_vehicles": 55, "d": 868, "route_I_counts": {"2": 55}, "source": 5, "target": 6}, {"shape_id": {"802WB_190513": 55}, "direction_id": {"1": 55}, "headsign": {"": 55}, "duration_avg": 60.0, "n_vehicles": 55, "d": 868, "route_I_counts": {"2": 55}, "source": 6, "target": 5}, {"shape_id": {"802EB_190513": 55}, "direction_id": {"0": 55}, "headsign": {"": 55}, "duration_avg": 120.0, "n_vehicles": 55, "d": 1489, "route_I_counts": {"2": 55}, "source": 6, "target": 7}, {"shape_id": {"802WB_190513": 55}, "direction_id": {"1": 55}, "headsign": {"": 55}, "duration_avg": 120.0, "n_vehicles": 55, "d": 1489, "route_I_counts": {"2": 55}, "source": 7, "target": 6}, {"shape_id": {"802EB_190513": 54}, "direction_id": {"0": 54}, "headsign": {"": 54}, "duration_avg": 180.0, "n_vehicles": 54, "d": 1546, "route_I_counts": {"2": 54}, "source": 7, "target": 8}, {"shape_id": {"802WB_190513": 55}, "direction_id": {"1": 55}, "headsign": {"": 55}, "duration_avg": 120.0, "n_vehicles": 55, "d": 1546, "route_I_counts": {"2": 55}, "source": 8, "target": 7}, {"shape_id": {"802EB_190513": 55, "805EB_190513": 54}, "direction_id": {"0": 109}, "headsign": {"": 109}, "duration_avg": 120.0, "n_vehicles": 109, "d": 1569, "route_I_counts": {"2": 55, "6": 54}, "source": 8, "target": 9}, {"shape_id": {"805WB_190513": 53}, "direction_id": {"1": 53}, "headsign": {"": 53}, "duration_avg": 120.0, "n_vehicles": 53, "d": 1054, "route_I_counts": {"6": 53}, "source": 8, "target": 14}, {"shape_id": {"802WB_190513": 55, "805WB_190513": 53}, "direction_id": {"1": 108}, "headsign": {"": 108}, "duration_avg": 120.0, "n_vehicles": 108, "d": 1569, "route_I_counts": {"2": 55, "6": 53}, "source": 9, "target": 8}, {"shape_id": {"802EB_190513": 55, "805EB_190513": 54}, "direction_id": {"0": 109}, "headsign": {"": 109}, "duration_avg": 120.0, "n_vehicles": 109, "d": 1724, "route_I_counts": {"2": 55, "6": 54}, "source": 9, "target": 10}, {"shape_id": {"802WB_190513": 54, "805WB_190513": 53}, "direction_id": {"1": 107}, "headsign": {"": 107}, "duration_avg": 120.0, "n_vehicles": 107, "d": 1724, "route_I_counts": {"2": 54, "6": 53}, "source": 10, "target": 9}, {"shape_id": {"802EB_190513": 55, "805EB_190513": 54}, "direction_id": {"0": 109}, "headsign": {"": 109}, "duration_avg": 60.0, "n_vehicles": 109, "d": 688, "route_I_counts": {"2": 55, "6": 54}, "source": 10, "target": 11}, {"shape_id": {"802WB_190513": 55, "805WB_190513": 53}, "direction_id": {"1": 108}, "headsign": {"": 108}, "duration_avg": 120.0, "n_vehicles": 108, "d": 688, "route_I_counts": {"2": 55, "6": 53}, "source": 11, "target": 10}, {"shape_id": {"802EB_190513": 55, "805EB_190513": 53}, "direction_id": {"0": 108}, "headsign": {"": 108}, "duration_avg": 60.0, "n_vehicles": 108, "d": 785, "route_I_counts": {"2": 55, "6": 53}, "source": 11, "target": 12}, {"shape_id": {"802WB_190513": 55, "805WB_190513": 53}, "direction_id": {"1": 108}, "headsign": {"": 108}, "duration_avg": 60.0, "n_vehicles": 108, "d": 785, "route_I_counts": {"2": 55, "6": 53}, "source": 12, "target": 11}, {"shape_id": {"802EB_190513": 55, "805EB_190513": 54}, "direction_id": {"0": 109}, "headsign": {"": 109}, "duration_avg": 180.0, "n_vehicles": 109, "d": 1098, "route_I_counts": {"2": 55, "6": 54}, "source": 12, "target": 13}, {"shape_id": {"802WB_190513": 55, "805WB_190513": 53}, "direction_id": {"1": 108}, "headsign": {"": 108}, "duration_avg": 120.0, "n_vehicles": 108, "d": 1098, "route_I_counts": {"2": 55, "6": 53}, "source": 13, "target": 12}, {"shape_id": {"805EB_190513": 54}, "direction_id": {"0": 54}, "headsign": {"": 54}, "duration_avg": 120.0, "n_vehicles": 54, "d": 1054, "route_I_counts": {"6": 54}, "source": 14, "target": 8}, {"shape_id": {"805WB_190513": 53}, "direction_id": {"1": 53}, "headsign": {"": 53}, "duration_avg": 120.0, "n_vehicles": 53, "d": 673, "route_I_counts": {"6": 53}, "source": 14, "target": 15}, {"shape_id": {"805EB_190513": 54}, "direction_id": {"0": 54}, "headsign": {"": 54}, "duration_avg": 120.0, "n_vehicles": 54, "d": 673, "route_I_counts": {"6": 54}, "source": 15, "target": 14}]}